Country,City,AccentCity,Region,Population,Latitude,Longitude,temperature,Humidity,Cloudiness,Wind Speed
ph,pajo aguinaldo,Pajo Aguinaldo,30,,10.866667,122.36666699999999,296.357,95,44,1.32
mw,jentha jembe,Jentha Jembe,21,,-11.05,34.1166667,296.482,85,8,1.72
cn,zengjiageng,Zengjiageng,32,,29.080357,104.028226,277.807,74,76,1.07
pk,khaprezai tarin,Khaprezai Tarin,02,,30.194346000000003,67.667714,275.632,66,0,1.12
fr,sauret,Sauret,98,,45.993302,2.8082979999999997,284.15,66,90,6.2
us,holly ridge,Holly Ridge,VA,,37.6383333,-77.39277779999999,276.16,69,1,4.1
ao,metoquica,Metoquiça,06,,-11.966667,14.783332999999999,290.757,98,80,1.42
ru,sinevo,Sinëvo,42,,60.943158999999994,30.115103,272.732,93,92,3.32
cn,dunancun,Dunancun,02,,30.893239,119.89093600000001,268.357,69,0,1.47
vn,son lai su,Son Lai Su,27,,14.016667000000002,109.16666699999999,295.657,96,92,5.72
ru,ramenye,Ramenye,47,,56.15391999999999,35.500088,275.457,95,92,7.17
br,sitio jacinto de avelari moreira,Sítio Jacinto de Avelari Moreira,27,,-25.021542999999998,-48.516842,302.607,54,0,1.22
au,kooroongarra,Kooroongarra,04,,-28.066667,151.25,289.307,80,0,4.92
cn,nanyo,Nanyo,11,,27.226632000000002,112.72028799999998,277.257,78,0,2.67
cf,tanga,Tanga,13,,6.4333333,16.25,299.057,37,0,2.87
iq,`ali wawi,`Ali Wawi,01,,33.47555560000001,44.0341667,285.15,88,20,2.6
pk,barani kodan,Barani Kodan,04,,31.29993,72.64733100000001,286.982,80,68,1.22
es,las fraguas,Las Fraguas,39,,43.194472999999995,-4.055376,285.15,100,90,1.5
br,barbosa ferraz,Barbosa Ferraz,18,9048.0,-24.066667000000002,-52.05,305.407,52,0,2.67
ve,el marquez,El Márquez,15,,10.2791667,-66.3975,298.532,79,64,1.22
pk,landi,Landi,05,,24.374844,68.02073299999999,290.532,85,64,5.42
us,goosetown,Goosetown,TN,,35.3166667,-84.5569444,276.28,55,1,2.1
cn,houxiangshuigou,Houxiangshuigou,19,,40.006854,123.38911200000001,260.307,36,0,4.82
id,karoan,Karoan,38,,-3.0573,119.5625,289.482,96,56,0.27
cu,paquito rosales,Paquito Rosales,15,,20.199722199999997,-75.7830556,299.3,88,75,2.6
de,untergrasheim,Untergrasheim,02,,48.666667,11.266667,275.36,75,0,10.8
au,denison,Denison,08,,-29.283333000000002,114.91666699999999,296.15,78,0,3.6
ru,moshna,Moshna,51,,56.928886,44.679856,268.282,88,80,3.67
pl,wutzig,Wutzig,76,,52.968376,15.696817999999999,271.382,92,88,6.47
mx,baburia,Baburia,25,,25.816667000000002,-108.2,293.607,26,88,1.32
gr,khondraiika,Khondraíika,31,,38.3833333,21.533333300000002,280.69,87,20,1.12
cn,shanhsiachen,Shanhsiachen,10,,36.961667,114.64027800000001,268.482,42,0,2.97
do,cruce del manchado,Cruce del Manchado,29,,18.8,-69.2833333,303.48,74,75,4.1
bi,kibatama,Kibatama,10,,-3.6266667,29.621111100000004,290.957,100,92,1.52
pk,ismail detha,Ismail Detha,05,,26.395023,68.05140899999999,288.15,62,75,5.1
ar,san julian,San Julian,17,,-22.783333,-62.483332999999995,304.107,75,36,2.12
nl,eck en wiel,Eck en Wiel,03,,51.970295,5.456429,277.43,87,75,10.3
et,fietira,Fietira,46,,9.983333,38.9,284.632,53,20,0.87
eg,`ezbet el-qarn,`Ezbet el-Qarn,21,,31.3333333,31.116666700000003,287.807,85,80,3.57
az,saritala,Saritala,58,,40.733199,45.717543,275.15,69,20,3.1
de,wolferts,Wolferts,02,,47.933333000000005,10.283333,277.32,80,0,14.4
se,brattby,Brattby,23,,63.9,19.883333,274.15,95,90,6.7
ua,buchki,Buchki,02,,52.310355,33.111339,274.982,98,92,6.12
kr,ponduri,Ponduri,13,,37.23726,127.58721000000001,270.91,38,5,3.6
mp,camp creoles,Camp Créoles,16,,-20.132777800000003,57.5933333,299.15,69,20,4.1
cz,hole,Hole,88,,50.0,14.55,271.49,86,90,7.7
ua,potsilnya,Potsilnya,02,,51.729668,32.042928,272.782,94,92,7.77
es,rebollar de ebro,Rebollar de Ebro,39,,42.794032,-3.954362,282.15,100,75,15.4
af,bakela,Bakela,23,,31.601946999999996,67.08144399999999,266.907,68,48,0.87
af,dahan-e shurab,Dahan-e Shurab,32,,35.845533,67.277361,263.157,66,0,1.12
cn,wangshatang,Wangshatang,03,,27.656404,116.04456299999998,270.657,83,0,1.42
de,lederhose,Lederhose,15,,50.8,11.916667,272.26,80,40,7.2
hu,kanye,Kányé,03,,46.833333,21.383333,272.15,74,0,6.7
ie,gortbaun,Gortbaun,20,,53.783333299999995,-9.383333300000002,272.15,86,0,4.1
tr,cagsak,Cagsak,38,,38.429542,36.55794,261.632,63,0,0.87
my,kampung ujong tanjong,Kampung Ujong Tanjong,08,,6.403446,100.131913,297.81,94,75,2.07
ee,korgessaare,Kõrgessaare,21,,57.895,27.2647222,270.87,74,90,2.6
bj,ouroutountaya,Ouroutountaya,01,,10.6,1.5666666999999999,296.857,32,0,3.32
pk,marufi banda,Marufi Banda,03,,33.444444,70.771389,276.307,90,76,0.97
cn,baikou,Baikou,18,,24.733333,106.1,279.207,88,56,0.82
id,sineran,Sineran,07,,-7.361389,109.059722,295.007,100,88,0.87
pk,rind baloch,Rind Baloch,04,,28.994444,70.833333,287.607,81,68,1.77
cd,bebentsie,Bebentsie,06,,-3.766667,16.583333,294.732,98,68,0.87
mx,el quelele,El Quelele,03,,24.191667000000002,-110.50833300000001,296.15,64,75,6.2
vn,non khe,Non Khe,14,,20.133333,106.05,289.632,94,92,2.12
dz,oulad soltane,Oulad Soltane,20,,36.466666700000005,2.8333333,288.15,67,75,2.1
es,tobazo,Tobazo,51,,37.516667,-4.066667,284.15,81,75,2.1
id,belokang 1,Belokang 1,30,,-6.178333,107.177778,300.15,83,20,3.1
br,bairro do paiol pequeno,Bairro do Paiol Pequeno,27,,-23.632525,-47.193981,302.79,37,20,4.1
in,bhomrabil,Bhomrabil,03,,26.465159000000003,89.90405799999999,289.957,87,0,2.02
eg,`ezab nubar,`Ezab Nûbâr,06,,31.2166667,30.0333333,291.04,68,40,2.6
kr,sagwi,Sagwi,13,,37.8612,127.0734,269.83,35,0,3.6
pl,jeziorna,Jeziorna,74,,51.375405,18.227782,272.632,75,88,9.67
cz,tuhan,Tuhan,83,,50.536509,14.467373,271.15,86,90,7.7
cz,mezilesi,Mezilesi,86,,49.933333000000005,16.683332999999998,274.15,64,90,5.1
pk,goth tunia,Goth Tunia,05,,27.802076,68.099232,287.15,76,40,1.67
ph,arsaas,Arsaas,51,,16.090999999999998,119.8407,299.632,100,56,2.12
sl,teleia,Teleia,02,,9.9666667,-11.816666699999999,302.957,24,0,2.77
ba,podanovici,Podanovici,01,,44.4772222,18.51,276.15,69,20,4.6
cn,huanghuibai,Huanghuibai,12,,30.096621999999996,114.503649,272.657,61,0,1.27
it,marigliano,Marigliano,04,31772.0,40.933333000000005,14.45,280.69,71,75,2.6
ph,linamanan,Linamanan,31,,16.5612,121.63,295.232,99,92,1.52
mz,manzu,Manzu,10,,-18.702777800000003,32.9913889,297.15,69,40,0.47
pl,jeziorna oborska,Jeziorna Oborska,78,,52.083333,21.116667,273.15,84,0,6.2
ie,tobernaclougha cross roads,Tobernaclougha Cross Roads,04,,52.2519444,-9.025277800000001,274.15,80,40,6.2
kr,pigo,Pigo,03,,35.433333000000005,126.933333,274.15,69,75,10.3
mm,hsaw taw,Hsaw Taw,11,,21.0666667,97.16666670000001,291.057,99,92,0.77
sn,darou khara,Darou Khara,08,,15.5,-16.3666667,305.15,22,0,2.1
et,tirigol,Tirigol,49,,7.816667,33.033333,300.807,49,0,1.12
ru,ivanishchevo,Ivanishchevo,25,,54.88460799999999,35.856823,275.307,93,92,6.47
sy,brummanat ra`d,Brummanat Ra`d,14,,34.9833333,36.0666667,285.15,54,40,3.1
lr,zigri,Zigri,09,,7.067222200000001,-8.7355556,301.907,60,32,1.17
ru,yevlashtau,Yevlashtau,73,,56.1128,50.5426,257.382,64,20,3.87
sy,marj darwish al khalaf,Marj Darwish al Khalaf,04,,36.1333333,38.9833333,279.007,66,68,3.37
kr,kaemdul,Kaemdul,06,,37.3184,128.6954,262.357,58,0,6.27
ph,badyang,Badyang,11,,10.048888999999999,124.325278,300.15,83,75,2.1
ba,malesici,Malesici,02,,44.5041667,19.053333300000002,276.15,69,20,4.6
no,bjorgo,Bjørgo,15,,60.916667000000004,7.233333,269.15,68,75,3.1
id,sintung selatan,Sintung Selatan,17,,-8.6103,116.2208,298.15,94,40,0.72
lb,hadchit,Hadchît,03,,34.2522222,35.984444399999994,290.15,45,0,2.6
tm,bay-kabyl',Bay-Kabyl',05,,37.4333333,62.0,274.15,69,5,4.1
ca,nigadu,Nigadu,04,,47.733333,-65.716667,270.15,79,90,3.6
ru,vilovatik,Vilovatik,77,,57.8084,36.7353,273.032,92,92,8.17
ru,sakany,Sakany,73,,55.374430000000004,50.207396,262.15,92,90,3
cn,chulusongjie,Chulusongjie,14,,32.1,78.7,248.882,41,0,0.97
th,ban tha kham nuea,Ban Tha Kham Nuea,02,,18.208528,98.616972,291.207,93,0,0.82
de,desching,Desching,02,,48.65,13.25,270.957,91,92,2.72
hn,los talpetates,Los Talpetates,02,,13.439722199999999,-87.0702778,300.457,47,36,6.62
pk,banda tabbikhwah,Banda Tabbikhwah,03,,33.212317,71.100842,282.732,85,68,1.67
sd,tiemwut,Tiemwut,32,,7.089722200000001,30.149444399999997,298.857,60,12,2.52
id,tumang,Tumang,08,,-7.383611,111.33444399999999,295.957,97,80,1.47
ng,itawmu,Itawmu,05,,6.5,3.6312260000000003,302.15,66,80,1.5
za,tarka se kop,Tarka se Kop,08,,-29.625471,21.679036,300.382,14,0,3.87
gh,pompomde,Pompomde,09,,4.85,-1.8333332999999998,300.107,100,8,2.57
iq,musa ja-efar,Musa Ja-efar,18,,33.800277799999996,44.38444439999999,285.15,82,20,2.6
cn,ceshi,Ceshi,24,,37.860278,113.385,266.15,62,0,1
nl,guttecoven,Guttecoven,05,,51.013690000000004,5.819585,279.64,81,75,15.4
gn,konkobaro,Konkobaro,17,,9.1,-10.35,303.707,31,8,1.32
id,wa mlana,Wa Mlana,28,,-3.074744,126.53491499999998,298.357,100,88,1.97
hn,talpetate,Talpetate,08,,13.683333300000001,-87.5,290.15,59,20,5.97
ir,kordar,Kordar,26,,35.583333,52.15,268.257,59,0,0.92
bf,tourendougou,Tourendougou,55,,9.866666699999998,-4.4,299.657,43,0,2.52
tr,ziyabeyciftligi,Ziyabeyciftligi,32,,36.983333,34.933333000000005,283.15,76,76,1.5
cn,shimutang,Shimutang,31,,18.770329,110.34993700000001,294.107,100,76,7.52
pl,dlugowola,Dlugowola,78,,51.096669,21.611147,270.857,83,0,7.92
ru,bolshiye gari,Bolshiye Gari,51,,57.04199200000001,43.538474,268.382,87,76,5.32
ve,garzas,Garzas,05,,8.3833333,-70.1,307.15,49,20,4.27
al,trebicka,Trebicka,46,,40.45,20.4716667,268.857,100,0,0.17
ml,sangoue,Sangoué,07,,13.083333300000001,-5.9166667,299.282,31,0,2.62
id,saurulenggu,Saurulenggu,24,,-1.0984770000000001,98.846338,299.132,97,48,0.47
ru,goristaya,Goristaya,60,,57.530751,30.419186,271.657,94,92,1.97
cz,rauenkulm,Rauenkulm,81,,50.15,12.533333,270.84,92,90,4.1
us,north american trailer park,North American Trailer Park,IA,,41.33888889999999,-93.5583333,278.31,48,1,7.2
af,betani,Betani,18,,34.457726,70.373825,281.15,70,75,0.5
pg,alepa,Alepa,01,,-9.965833300000002,147.95138889999998,300.232,100,48,2.17
id,doesoenpasirmajang,Doesoenpasirmajang,05,,-1.133333,102.15,295.232,99,88,1.42
af,nazarmukhammed-khune,Nazarmukhammed-Khune,08,,32.572571999999994,67.88215500000001,270.882,60,68,2.07
ma,ouled yahia,Ouled Yahia,54,,34.795555,-2.486477,290.5,77,0,3.6
tg,adidome,Adidomé,18,,6.231388900000001,1.3086111,303.15,51,0,0.5
tr,bukkoy,Bükköy,37,,41.466347,34.09473,277.757,93,92,2.77
cn,laohuya,Laohuya,26,,33.169395,106.02026599999999,270.407,79,80,0.97
ir,seh konar,Seh Konar,11,,26.836475,54.22493000000001,293.05,49,0,2.1
id,paun,Paun,38,,-3.1993,119.5441,289.482,96,56,0.27
id,meseugit,Meseugit,01,,4.1728,96.1573,298.257,100,92,0.92
in,sijari khurd,Sijari Khurd,36,,25.3632,79.2603,286.282,69,0,0.52
us,oyster bay,Oyster Bay,AL,,30.2852778,-87.7430556,282.97,37,1,3.6
cn,linjiaweizi,Linjiaweizi,19,,42.536390000000004,122.507801,256.157,30,0,6.17
se,sandbacka,Sandbacka,28,,58.083332999999996,11.933333,271.81,92,75,4.6
ir,qarah saqqal-e `olya,Qarah Saqqal-e `Olya,32,,39.2676,48.0226,269.007,79,0,1.07
cn,sanlousi,Sanlousi,24,,35.001389,110.73361100000001,265.457,72,56,1.32
mg,ambalamarana,Ambalamarana,04,,-20.05,46.95,289.357,98,92,1.17
eg,as sayyar,As Sayyar,21,,31.591944399999996,31.0416667,292.282,100,68,5.12
cn,xinwuzai,Xinwuzai,03,,28.070437,114.184118,269.782,74,0,1.22
sb,ghaomai,Ghaomai,00,,-7.05,155.65,301.857,100,0,2.17
au,mackies crossing,Mackies Crossing,08,,-31.833333000000003,116.8,289.482,96,8,1.42
ir,asgharabad,Asgharabad,43,,37.313681,56.533714,264.357,71,0,0.67
ru,berezovka,Berëzovka,43,,52.013276,38.311737,278.15,93,40,8
de,osterholz,Osterholz,14,,52.75,12.033333,272.257,89,88,7.27
de,bohnenburger reihe,Bohnenburger Reihe,06,,53.61666700000001,8.033333,273.15,97,75,5.7
ua,nadezhda,Nadezhda,11,,45.207571,35.099236,282.507,99,12,10.92
kh,phum kompleanh,Phum Kompleanh,05,,12.9,104.4333333,294.757,91,0,0.57
pk,khair din hamiana,Khair Din Hamiana,04,,30.439743,71.558801,287.15,87,90,1.07
be,spanuit,Spanuit,02,,50.833333,4.216667,279.98,87,75,9.8
cn,huoyandian,Huoyandian,09,,32.909962,113.409477,271.157,49,0,2.42
az,muganly,Muganly,06,,40.486389,48.218333,274.907,81,0,1.52
id,banjar segarakaton,Banjar Segarakaton,02,,-8.4561,115.6153,299.15,88,40,2.1
ao,calunga camuhungo,Calunga Camuhungo,17,,-9.381958000000001,18.386110000000002,293.707,92,88,1.52
iq,qulijan,Qulijan,05,,35.0152778,45.218888899999996,274.15,100,0,2.1
nl,kadoelen,Kadoelen,15,,52.666939,6.001286,274.49,100,75,6.2
ng,ajiboro,Ajiboro,32,,7.266667,4.316667,304.15,40,32,1
fr,reville,Réville,99,,49.619058,-1.258678,281.68,70,40,7.2
cn,lixiankeng,Lixiankeng,02,,29.349286,120.650714,268.132,69,0,1.92
et,adil badir,Adil Badir,53,,12.4,39.333333,281.307,69,20,1.22
ee,kurisoo,Kurisoo,04,,59.1405556,25.800277800000003,273.15,87,90,4.1
lv,kundzinsala,Kundzinsala,25,,57.1666667,24.105555600000002,271.15,100,40,3.6
pl,miloradz,Miloradz,82,,54.013712,18.916386,271.15,86,20,4.6
pk,ghazi khan,Ghazi Khan,05,,27.040003999999996,67.623869,286.657,97,100,1.32
cn,serqexoi,Sêrqêxoi,14,,28.403000000000002,92.40299999999999,249.207,31,0,0.87
us,borodino,Borodino,LA,,31.065833299999998,-91.9508333,284.08,37,1,2.6
sd,gorbek,Gorbek,26,,8.2,30.2,298.057,67,0,2.52
gr,votonasi,Votonási,17,,39.768055600000004,21.1183333,275.15,93,20,0.42
cn,lisuitien,Lisuitien,22,,40.075556,116.752222,272.15,28,0,3
kr,tangnamuma,Tangnamuma,14,,36.4635,129.1771,267.132,41,0,8.57
ir,yekkeh tut-e `olya,Yekkeh Tut-e `Olya,37,,37.903299,56.067948,272.282,76,0,1.22
mx,cucapa mestizos,Cucapá Mestizos,02,,32.245833000000005,-115.2825,287.15,22,90,2.6
th,ban sanai klang,Ban Sanai Klang,30,,14.838583999999999,104.026889,295.857,71,20,3.97
cn,yingangling,Yingangling,30,,23.820017,114.79653400000001,283.007,99,0,3.47
ng,alapako,Alapako,32,,7.15,3.75,304.15,40,68,1
gw,carere,Carere,06,,12.2166667,-16.15,304.15,29,0,4.1
br,arapari,Arapari,06,,-3.55,-39.616667,305.632,46,36,5.12
ru,elton,Elton,84,,49.116667,46.566666999999995,272.557,90,64,5.27
ug,kiterera,Kiterera,86,,0.3666667,33.533333299999995,294.007,89,24,1.17
mx,huitzila,Huitzila,17,,18.633333,-98.93333299999999,292.15,24,5,1
cn,agong,Agong,14,,31.6,92.0,254.732,45,0,1.02
cg,youiounkoye,Youiounkoye,01,,-4.1119444,13.2911111,296.307,94,100,0.87
ir,gerdeh ulast,Gerdeh Ulast,08,,37.091111,49.163610999999996,280.15,100,0,0.97
ba,antonica brdo,Antonica Brdo,02,,44.8827778,16.4641667,275.15,74,0,2.6
us,garnet,Garnet,NV,,36.388611100000006,-114.8702778,286.17,18,1,1.5
id,sepatan kidul,Sepatan Kidul,30,,-6.124167,106.574722,300.15,83,20,3.1
jm,font hill,Font Hill,11,,18.0666667,-77.9333333,299.15,88,75,1.5
id,malangrejo,Malangrejo,10,,-7.741111,110.423056,295.207,100,92,1.62
tr,yayliyades,Yayliyades,41,,41.181389,30.292222,280.15,81,40,1.5
id,lumpit,Lumpit,30,,-7.4255,108.2625,293.257,99,92,0.97
iq,humayyid shanum,Humayyid Shanum,10,,33.4833333,45.6666667,276.15,59,0,2.1
id,botorejokrajan,Botorejokrajan,07,,-6.8988,110.6533,295.757,100,64,1.12
by,zhukovo vtoroye,Zhukovo Vtoroye,07,,55.8,30.0833333,270.607,91,76,4.17
id,pasirbuntu 2,Pasirbuntu 2,30,,-6.081111,106.3925,300.15,83,20,3.1
ir,churzaq,Churzaq,36,,37.0005,48.7772,262.657,70,8,0.77
ru,krasitsy,Krasitsy,69,,55.527106999999994,34.813165999999995,276.407,94,92,7.12
bo,estancia alkhamari,Estancia Alkhamari,01,,-19.146666699999997,-65.15111110000001,286.957,96,20,1.32
mg,mandrifasika,Mandrifasika,02,,-23.1,46.5666667,291.607,85,0,2.47
se,skala,Skala,28,,58.254167,11.791667,271.62,92,75,4.6
ru,golovnino,Golovnino,JA,,43.736111,145.519444,274.482,100,92,7.72
no,hjellebol,Hjellebøl,01,,59.75,11.433333,269.15,92,88,1.5
ru,rybakovshchina,Rybakovshchina,33,,58.32954300000001,47.510418,265.307,87,76,3.32
ua,novokuban,NovoKuban,08,,47.116309,33.346012,277.707,97,92,9.42
ye,al qarn,Al Qarn,08,,14.631944400000002,43.194166700000004,296.157,62,0,4.27
cn,tielu,Tielu,11,,28.020833000000003,111.02416699999999,271.607,84,0,0.72
ph,dayni,Dayni,20,,14.190346,120.844802,300.15,100,75,3.42
cu,bajurayabo,Bajurayabo,02,,23.1319444,-82.17833329999999,295.15,49,75,7.7
ge,dziruly,Dziruly,61,,42.0908333,43.1758333,281.15,84,0,4.1
gh,trayunya,Trayunya,08,,6.0166667,0.0166667,301.15,78,20,2.6
kp,wolsongdong,Wolsongdong,06,,38.288888899999996,125.65333329999999,266.632,79,36,8.12
af,sar-e bargho sang,Sar-e Bargho Sang,05,,34.395607,66.978226,253.282,54,0,0.87
bg,bichkinya,Bichkinya,46,,42.85,25.3333333,271.15,100,0,1.5
tg,koubinoukwe,Koubinoukwé,18,,6.55,1.0833333,303.15,51,8,0.5
at,wilten,Wilten,07,,47.25,11.416667,271.15,86,90,2.6
af,khwajah baranah wali,Khwajah Baranah Wali,13,,34.520885,69.69821999999999,274.15,47,20,1
gd,chadeau,Chadeau,01,,12.133333300000002,-61.6833333,303.15,70,40,5.1
gh,gowenu number 2,Gowenu Number 2,09,,6.116666700000001,-0.7,299.557,75,8,1.77
vn,don dang,Don Dang,39,,21.95,106.7,285.482,75,64,1.17
ru,ivanovo-shuyskoye,Ivanovo-Shuyskoye,83,,56.44,40.25363,271.882,95,88,6.92
ph,aquinit,Aquinit,28,,18.0615,120.7474,295.257,100,12,3.17
cn,panxi,Panxi,01,,29.971413000000002,118.714809,264.757,68,0,0.87
id,langgem,Langgem,17,,-8.3699,116.1726,298.15,94,40,0.72
kh,phum kbal khmoco,Phum Kbal Khmoco,01,,13.1,103.1333333,294.757,89,0,1.22
ca,battle harbor,Battle Harbor,05,,52.266667,-55.583332999999996,272.15,100,90,11.3
co,hacienda cascajal,Hacienda Cascajal,09,,1.98416,-76.989786,289.807,90,64,0.97
sn,diocadou,Diocadou,12,,13.133333300000002,-16.1166667,304.64,29,5,4.6
ch,affeltrangen,Affeltrangen,19,,47.527012,9.032067999999999,278.94,80,75,8.7
rw,colline nyarusange,Colline Nyarusange,01,,-2.35,29.6666667,289.032,100,92,1.07
af,burkah,Burkah,26,,36.695026,69.283592,268.882,78,0,0.07
mz,nacote,Nacote,07,,-14.271666699999999,35.701666700000004,294.157,96,92,2.17
vn,ky truc,Ky Truc,26,,18.466667,105.7,290.657,100,92,2.57
kp,kumdong,Kumdong,06,,38.3591667,125.09583329999998,266.632,79,36,8.12
cn,lintian ba,Lintian Ba,03,,28.341510999999997,116.752569,271.532,72,0,1.47
et,fit'o,Fit'o,46,,11.116667,39.216667,279.282,52,0,0.92
id,ngronan,Ngronan,08,,-7.4152,111.7026,295.957,97,80,1.47
eg,ikinj maryut,Ikinj Maryut,06,,30.9925,29.766666700000002,291.2,72,40,4.1
ir,kalateh-ye sohrab,Kalateh-ye Sohrab,43,,37.279435,57.58500600000001,271.15,86,0,0.82
us,rustic hills,Rustic Hills,MD,,38.4880556,-76.7286111,276.62,64,75,4.6
gr,chorio thymiana,Chorió Thymianá,50,,38.315,26.1336111,285.15,58,20,2.6
ru,ust-shegultan,Ust-Shegultan,71,,60.4,60.11666700000001,257.632,79,44,1.82
mx,nopala,Nopala,20,,16.109167000000003,-97.156111,298.15,65,5,3.1
us,woodlawn estates,Woodlawn Estates,NE,,40.8366667,-96.7191667,283.79,27,1,6.2
ru,selmenga,Selmenga,06,,61.885278,42.699166999999996,268.857,88,92,6.42
cn,xingfuyuan,Xingfuyuan,32,,30.768515999999998,105.030348,276.557,85,36,0.77
rs,knezevo,Knezevo,00,,43.2775,20.911944000000002,272.15,74,0,2.6
td,dougi tibne,Dougi Tibne,04,,12.3647222,15.049444400000002,301.15,20,20,2.6
am,mets dzhamshlu,Mets Dzhamshlu,01,,40.681388899999995,44.2902778,267.4,85,0,0.5
cn,huachiachiaochen,Huachiachiaochen,04,,31.303889,121.07611100000001,276.15,64,0,2
ru,sinitsyno,Sinitsyno,86,,51.8242,40.1965,278.15,93,40,8
ml,dianke,Dianké,00,,15.733333300000002,-4.65,297.307,31,0,3.72
ph,tebalad,Tebalad,H2,,14.957142000000001,121.98556699999999,299.107,100,68,9.02
pl,zurawin,Zurawin,72,,50.980567,17.042237,273.15,85,0,5.1
sv,el copalio,El Copalío,07,,13.433333300000001,-87.9333333,301.15,34,0,6.2
ng,kaina,Kaina,39,,12.637360000000001,8.587349,297.15,29,0,2.6
ru,damberg,Damberg,52,,58.716667,31.1,273.107,93,88,1.87
cf,bokouma,Bokouma,07,,3.75,17.8666667,300.707,53,12,1.52
fr,lilia,Lilia,A2,,48.618832,-4.5543309999999995,280.16,87,0,4.1
cz,pirken,Pirken,89,,50.49575,13.418121,269.15,92,75,1.5
sy,khubayrat,Khubayrat,01,,36.716666700000005,41.0,277.73,73,75,2.6
fr,magnoux,Magnoux,98,,46.588187,2.610861,282.74,81,75,10.3
cd,kembe-malonga,Kembe-Malonga,02,,-5.266667,20.333333,293.807,96,20,0.82
id,landuke,Landuke,38,,-4.373,119.6349,299.782,100,68,2.22
ru,chabagor,Chabagor,20,,52.416111,103.5275,242.15,74,0,2
de,entenort,Entenort,07,,52.05,8.2,273.86,92,75,3.1
de,klenau,Klenau,10,,54.25,11.016667,272.15,100,75,4.6
pk,saranchak khaddian,Saranchak Khaddian,04,,32.183333000000005,75.266667,285.382,81,80,1.47
cl,grutas,Grutas,03,,-21.966667,-69.616667,299.657,46,0,2.22
pe,santa angelica,Santa Angélica,20,,-4.9444444,-80.28,305.007,45,0,3.07
cn,bagou,Bagou,19,,41.004346000000005,120.046388,257.657,26,8,2.42
ru,cherez-mezhnik,Cherez-Mezhnik,60,,57.490568999999994,28.815440999999996,270.15,100,76,1
ru,znamenka,Znamenka,42,,59.872868000000004,29.947946,273.15,99,75,1
br,urubu,Urubu,15,,-19.883333,-46.05,301.232,59,48,2.87
cn,xibet,Xibet,13,,47.2,88.233333,261.982,83,44,2.42
ru,kasyanovka,Kasyanovka,61,,48.943884999999995,40.500964,276.457,89,64,7.27
by,pukhovka,Pukhovka,07,,55.1,27.0333333,271.307,95,36,3.37
am,antarramej,Antarramej,04,,40.6833333,45.1333333,263.757,95,0,1.52
tr,sove,Söve,10,,39.991334,28.095574,283.15,53,20,2.52
gw,jabada beafada,Jabadá Beafada,04,,11.8,-15.3,304.15,31,0,4.6
ng,gindi,Gindi,27,,12.714547999999999,13.033881,294.707,43,36,3.12
ir,harbedan,Harbedan,07,,28.6531,54.4402,268.982,66,0,0.57
th,ban khok on,Ban Khok On,69,,6.753611,101.07180600000001,294.482,93,8,0.82
fi,koivu,Koivu,15,,61.4,23.15,273.15,89,75,3.6
af,de hazarmisi karez,De Hazarmisi Karez,10,,32.363463,64.833816,271.157,84,0,0.87
pl,podos stary,Podos Stary,78,,52.977151,21.117071,272.107,87,20,6.42
ir,salmani,Salmani,11,,27.0336,57.0226,291.15,55,0,2.1
pk,dadu ahloka,Dadu Ahloka,04,,30.296649,73.431777,286.732,75,88,1.27
fi,levaranta,Leväranta,06,,66.8,27.4,270.807,86,76,2.87
pa,la isleta,La Isleta,02,,8.2833333,-82.05,298.15,94,75,1.5
ba,velike njive,Velike Njive,02,,43.735833299999996,19.340555600000002,271.15,63,0,5.1
ve,camino 06,Camino 06,18,,9.063333300000002,-68.8966667,309.257,40,0,4.12
id,dadabong,Dadabong,10,,-7.864167,110.299167,295.207,100,92,1.62
be,klein langerloo,Klein Langerloo,05,,50.933333000000005,5.5,280,81,75,15.4
me,oracine,Oracine,00,,42.756111,18.83,277.48,80,0,0.5
eg,el zaitun qibli,El Zaitun Qibli,04,,29.181944399999995,31.1541667,288.032,59,76,4.37
ru,novotremino,Novotrëmino,20,,56.727,98.0661,252.457,55,0,2.67
de,eckartsberg,Eckartsberg,13,,50.916667,14.8,270.957,91,92,9.12
by,pesevichi,Pesevichi,03,,53.8833333,26.0666667,270.282,90,44,3.22
ir,shur ab,Shur Ab,41,,32.78905,59.355486,272.15,22,0,3.1
kr,sosong,Sosong,17,,36.433333000000005,126.516667,274.15,59,40,6.7
pg,omili,Omili,14,,-6.7,147.0,293.657,100,44,0.77
uy,kiyu,Kiyú,16,,-34.65,-56.75,298.15,47,0,6.2
de,merzdorf,Merzdorf,11,,51.4,13.533332999999999,271.62,80,75,10.3
id,belongpanggang,Belongpanggang,08,,-7.2665,112.4492,300.15,83,20,2.6
gq,ndanguen,Ndanguen,07,,2.0333333,10.566666699999999,295.782,98,92,0.97
in,nagaram,Nagaram,02,,17.184167000000002,78.38972199999999,289.15,77,0,1.5
cd,oje,Oje,10,,-4.1666669999999995,25.4,296.757,87,80,0.77
hn,cordoncillos,Cordoncillos,06,,14.916666699999999,-87.9,295.57,57,20,5.7
mx,sacamulpa huitzitzilapan,Sacamulpa Huitzitzilapan,15,,19.393333,-99.451111,288.8,22,20,3.1
kr,nochae,Nochae,03,,35.885565,127.55520600000001,267.807,65,64,4.17
kr,puchaemogi,Puchaemogi,14,,36.373889,128.757778,274.15,64,0,7.7
ye,haih,Haih,04,,15.2166667,48.5,274.882,41,0,1.62
sk,dolne stitary,Dolne Stitary,04,,48.35,18.1666667,275.15,64,75,10.3
jp,yama-igarashi,Yama-igarashi,29,,37.85,138.933333,273.407,79,80,1.22
iq,an nahidayn,An Nahidayn,01,,32.25,39.6,277.532,47,36,4.32
hu,ladomany,Ladomány,21,,46.315406,18.594116,275.15,64,0,5.7
th,na pho,Na Pho,28,,15.641126000000002,102.95461999999999,295.282,76,8,3.67
in,poriem,Poriem,33,,15.583332999999998,74.016667,297.232,100,0,2.32
kr,pyongchi,Pyongchi,16,,34.945754,127.18100700000001,274.457,70,20,5.17
id,cidongkol,Cidongkol,30,,-6.368056,108.079167,295.732,97,80,1.17
fr,saint-quay-portrieux,Saint-Quay-Portrieux,A2,,48.649916999999995,-2.8305849999999997,279.84,87,0,2.6
id,dukuhan,Dukuhan,08,,-7.156768,111.845284,295.957,97,80,1.47
gn,diata torobe,Diata Torobé,07,,11.9666667,-10.5333333,302.257,23,0,2.07
us,new hope,New Hope,CA,,38.226388899999996,-121.42277779999999,278.63,75,1,1.5
tr,marsikli,Marsikli,31,,36.236944,36.431111,281.15,75,75,1.5
ir,khvoshab,Khvoshab,35,,36.611798,52.99085,280.28,86,0,2.1
ao,vila sarmentu,Vila Sarmentu,17,,-8.156327000000001,20.656384,293.282,92,68,1.42
dz,oued morra,Oued Morra,25,,34.1666667,2.3166667000000003,279.207,91,0,2.52
il,netser,Netser,02,,31.922778000000005,34.825833,289.32,77,0,1.5
dz,village d' el anabres,Village d' el Anabres,15,,35.0833333,-1.9,289.71,63,40,3.1
cd,kivulungania,Kivulungania,00,,-7.6666669999999995,28.9,291.857,100,100,0.97
th,ban nakam,Ban Nakam,74,,14.0,101.85,295.632,89,0,1.52
ru,tarasovskoye ramenye,Tarasovskoye Ramenye,33,,60.2698,47.09,265.857,83,80,2.92
th,ban don yao,Ban Don Yao,27,,15.45,102.516667,293.15,94,0,1.57
gb,stockton,Stockton,N3,,54.583332999999996,-1.416667,273.01,86,40,4.6
tw,huapen,Huapen,04,,23.9166667,120.71666670000002,289.15,82,40,7.2
kr,myondong,Myondong,20,,35.752311999999996,127.81753300000001,267.807,65,64,4.17
ci,lagua,Lagua,80,,6.402267,-6.696325,303.15,37,12,1.57
se,om,Öm,28,,58.38333299999999,13.9,271.32,100,56,2.1
pk,jhariwala,Jhariwala,04,,30.513889000000002,70.733333,287.057,87,92,2.37
cn,tuanniuping,Tuanniuping,32,,29.887016999999997,102.313272,273.207,92,56,0.42
gb,forkill,Forkill,S9,,54.083332999999996,-6.45,269.15,85,20,1
co,el hatillo,El Hatillo,35,,8.55,-73.93333299999999,297.882,97,80,1.62
ph,itbud,Itbud,08,,20.367453,121.960571,297.732,100,80,9.82
us,middle earth,Middle Earth,MD,,38.3241667,-76.5172222,276.44,64,75,4.6
us,feeduqor,Feeduqor,FM,,9.5005556,138.08111110000002,299.15,94,90,1.5
pl,schmolz,Schmolz,72,,51.072615,16.881818,273.15,85,20,5.7
hu,kurjantopuszta,Kurjantópuszta,01,,46.855153,19.298616,275.65,64,0,6.2
ir,vayekan,Vayekan,11,,27.7303,56.3345,291.15,55,0,2.1
ee,allikaotsa,Allikaotsa,07,,58.7644444,23.922222199999997,274.957,90,88,4.87
tr,yukaribercin,Yukaribercin,37,,41.066666999999995,33.9,277.257,94,92,3.12
cn,zhangwang,Zhangwang,04,,33.257806,119.002875,269.857,90,0,2.42
cn,ninu,Ninu,24,,38.997803000000005,112.29778600000002,263.507,55,0,3.27
ne,tamroro,Tamroro,04,,13.683333300000001,7.05,293.757,34,0,3.32
nl,boord,Boord,06,,51.468481,5.522166,279.65,70,90,10.3
mx,agua gordita,Agua Gordita,32,,22.133333,-101.966667,283.15,23,75,7.2
cn,hepoutou,Hepoutou,30,,24.543597000000002,115.81295700000001,278.632,74,0,1.67
co,el aro,El Aro,02,,7.249185000000001,-75.51850400000001,292.632,97,92,0.92
af,shawo kalay,Shawo Kalay,40,,34.831276,69.334358,274.15,47,20,1
ao,matafo,Matafo,18,,-10.9,19.95,291.407,99,76,0.87
us,ganes creek,Ganes Creek,AK,,63.089722200000004,-156.4305556,265.53,100,90,0.92
us,liberty trailer park,Liberty Trailer Park,MD,,39.3,-76.5041667,276.51,55,40,5.1
vn,ke ga,Kê Gà,36,,10.7,107.983333,298.207,94,56,2.42
mx,san jose,San José,10,,23.166667,-105.316667,291.107,19,56,0.92
sy,mameit,Mâmeït,09,,36.8666667,38.3166667,278.007,82,36,3.17
ve,dividive,Dividive,12,,7.842222200000001,-67.21222220000001,309.032,38,0,5.12
ru,ostuzhnaya,Ostuzhnaya,10,,52.4651,34.1381,279.032,93,92,6.32
pe,chalana,Chalana,05,,-13.516666699999998,-74.6,297.15,33,0,1
pk,goth allan chuddo,Goth Allan Chuddo,05,,25.474832,69.054324,291.457,90,24,4.62
br,dois corregos,Dois Córregos,14,,-15.05,-56.36666700000001,298.307,99,92,0.82
ec,nudpud,Nudpud,05,,-2.65,-78.7666667,298.15,41,40,2.1
ml,foiniat,Foïniat,00,,15.483333300000002,-8.7,299.232,19,0,2.97
us,woodinville,Woodinville,NY,,41.570555600000006,-73.6305556,275.27,55,1,7.7
cu,maniet,Maniet,15,,20.1666667,-76.0,298.15,88,75,2.6
ao,embala,Embala,13,,-15.533332999999999,13.483332999999998,296.457,90,80,1.62
pl,brzozowa gac,Brzozowa Gac,75,,51.394194,22.180382,270.907,89,8,6.52
cn,tienchiaoho,Tienchiaoho,02,,30.245278000000003,121.16194399999999,278.36,33,0,2
us,mae,Mae,MN,,46.832222200000004,-93.86527779999999,267.94,73,90,3.1
th,ban kok kraboe,Ban Kok Kraboe,69,,6.793139,101.524945,294.632,94,36,0.97
af,haji mohammad rahim,Haji Mohammad Rahim,23,,31.526093,65.461157,279.15,20,1,1.5
by,dareni,Dareni,03,,54.05,25.95,270.282,90,44,3.22
ru,botvinvo,Botvinvo,76,,53.805715,36.9865,275.732,93,92,6.27
id,lembur,Lembur,18,,-8.4375,120.49799999999999,295.507,100,88,1.22
ua,kotlyarevskoye,Kotlyarevskoye,05,,47.472581,38.291016,281.482,82,44,8.27
us,embassy park,Embassy Park,DC,,38.9355556,-77.08333329999999,276.4,55,90,3.1
tr,degermendere,Degermendere,04,,39.849063,42.336946999999995,284.15,50,0,2.6
pk,gahi mir baz,Gahi Mir Baz,04,,33.432164,73.114143,286.15,71,75,0.77
fr,arith,Arith,B9,,45.713834999999996,6.084830999999999,277.87,93,90,6.2
ua,novosyulki,Novosyulki,15,,49.639311,24.019845,268.15,92,0,3
de,rottmannsberg,Rottmannsberg,01,,48.95,9.533333,277.56,81,75,4.1
by,koziany,Koziany,07,,55.3,26.866666700000003,271.307,95,36,3.37
id,moeara boelan,Moeara Boelan,14,,1.2,117.55,296.382,89,56,0.97
ng,lenfa,Lenfa,31,,9.216667,6.55,302.457,54,20,1.02
mn,boro hamar,Boro Hamar,07,,43.6,109.7,255.282,49,0,1.17
bj,tondi-kinte,Tondi-Kinté,03,,11.666666699999999,3.35,296.882,35,0,2.97
us,musser,Musser,PA,,40.726111100000004,-77.98472220000001,272.47,55,90,7.2
pl,jarotki,Jarotki,86,,52.376956,18.067142999999998,271.857,77,80,8.07
af,cheshmeh khani,Cheshmeh Khani,11,,34.030283000000004,62.182117000000005,273.15,73,0,2.6
mg,ambarimanitra,Ambarimanitra,06,,-23.033333300000002,44.1166667,290.607,92,8,1.02
vn,na meo,Na Meo,02,,21.7,105.55,290.15,77,75,0.5
mn,delger nuur dugang,Delger Nuur Dugang,21,,49.5,103.3,246.882,59,0,1.07
mx,el oriente,El Oriente,06,,26.8,-105.15,280.632,92,64,2.07
ec,pomona,Pomona,17,,-1.6833333,-77.8833333,299.207,61,24,1.87
ru,staraya bogdanovka,Staraya Bogdanovka,72,,53.016667000000005,40.85,274.707,94,36,6.92
jm,tomsfield,Tomsfield,07,,18.1333333,-76.5166667,302.15,74,40,4.6
iq,robanko,Robanko,08,,37.2002778,42.6194444,268.557,70,36,1.07
cn,gongzhengping,Gongzhengping,11,,29.801696999999997,110.87171699999999,269.532,79,0,0.77
in,karburun,Karburun,12,,33.533333,75.466667,271.357,49,88,0.67
ht,nan saut,Nan Saut,11,,18.9166667,-72.45,305.15,52,20,3.6
bg,kayadzhik timar,Kayadzhik Timar,61,,43.4,26.883333299999997,272.707,62,0,4.57
by,khutora novo selivonovskiye,Khutora Novo Selivonovskiye,02,,52.8666667,30.3333333,273.15,91,90,5
us,maplehurst woods,Maplehurst Woods,MD,,39.584444399999995,-76.64944440000001,275.88,55,90,4.1
co,santa rosa cabal,Santa Rosa Cabal,24,,4.868056,-75.62138900000001,297.15,73,40,1
id,jrenggeng,Jrenggeng,07,,-7.458889,110.310833,295.757,100,64,1.12
my,sentul,Sentul,14,,3.183333,101.68333299999999,299.15,94,75,1
ne,kabay,Kabay,05,,14.25,1.6,295.707,20,0,3.12
au,wharparilla,Wharparilla,07,,-36.133333,144.633333,287.357,78,0,3.02
ph,isabela central,Isabela Central,H3,,10.2137,123.036,295.282,94,0,0.27
br,sitio valdomiro,Sítio Valdomiro,18,,-23.0186,-50.1711,306.857,40,24,3.42
at,ottsdorf,Ottsdorf,04,,47.883333,14.1,272.15,92,75,2.1
ir,moseyleb,Moseyleb,15,,31.623,49.1813,286.03,44,0,3.1
mm,ranmu,Ranmu,10,,26.55,95.8,289.557,98,88,0.77
id,mayak kidul,Mayak Kidul,30,,-6.921944,107.12388899999999,293.232,98,92,0.62
in,melappalaiyam,Melappalaiyam,25,,8.7,77.716667,295.507,94,0,1.52
cn,aipokeng,Aipokeng,30,,23.801667000000002,113.015556,290.15,80,0,5
cn,tungkuan,Tungkuan,32,,30.780075,106.27519199999999,276.957,79,12,1.22
gh,juasi,Juasi,02,,6.4666667,-1.4,299.757,64,0,1.52
zm,nguluwe,Nguluwe,06,,-13.4666667,32.783333299999995,292.007,95,20,3.42
de,guhlen,Guhlen,11,,52.016667,14.15,271.15,100,75,4.1
cn,shouyan zhen,Shouyan Zhen,11,,25.571389,111.502222,273.132,82,0,1.02
lt,selos,Selos,64,,55.4333333,25.8833333,270.957,89,68,3.27
id,fatukriti,Fatukriti,18,,-9.606667,124.79638899999999,295.032,100,0,1.02
fi,hallanpera,Hallanperä,08,,63.966667,25.633333,271.457,91,44,2.77
ma,dar oulad sidi abd el aziz,Dar Oulad Sidi Abd el Aziz,50,,32.56,-7.66,287.207,68,0,1.92
de,kliesberg,Kliesberg,14,,51.75,12.5,271.15,100,75,5.7
ru,petrushino,Petrushino,21,,56.673651,42.510657,270.257,89,80,6.57
us,elizabeth park,Elizabeth Park,GA,,33.6425,-84.3441667,276.58,44,1,4.1
th,ban siam,Ban Siam,26,,16.066667000000002,102.18333299999999,294.232,85,44,1.07
cn,shahhsien,Shahhsien,10,,36.938333,114.50583300000001,268.482,42,0,2.97
ru,makarye,Makarye,33,,57.439029000000005,47.122113,265.657,84,76,3.67
pk,thorianondeh,Thorianondeh,03,,35.726711,71.769576,258.232,66,44,0.32
pk,khokharanwala,Khokharanwala,03,,32.025,71.00416700000001,282.882,83,24,1.27
us,bear valley springs,Bear Valley Springs,CA,,35.1591667,-118.6275,283.16,8,1,6.7
us,eastsound,Eastsound,WA,,48.69694439999999,-122.90416670000002,276.69,81,75,0.62
md,zberoaia,Zberoaia,80,,46.968610999999996,28.106944,272.68,86,0,2.1
cn,zhengjia dawan,Zhengjia Dawan,12,,30.932407,114.642334,278.15,52,0,2
sd,awai,Awai,34,,11.816666699999999,31.116666700000003,293.757,63,0,1.42
us,eastwood,Eastwood,OH,,39.048888899999994,-83.98472220000001,272.31,55,90,5.7
pl,samborz,Samborz,78,,52.53846899999999,19.88573,271.782,89,24,6.82
ru,kuyantayevo,Kuyantayevo,08,,52.664167000000006,58.177222,260.982,77,64,2.22
tr,afiun qarahisar,Afiun Qarahisar,03,,38.756667,30.543333,278.507,97,92,5.07
us,ryland corner,Ryland Corner,VA,,38.038611100000004,-77.5175,276.77,60,40,3.1
af,rabati-sangiyi-bala,Rabati-Sangiyi-Bala,11,,34.781723,62.122834,273.15,72,0,2.6
ir,chalevan,Chalevan,03,,32.483947,50.920656,270.15,21,0,1
cm,fogoum,Fogoum,12,,10.75,13.9666667,293.532,45,20,1.72
mr,fereni,Féréni,02,,15.566666699999999,-8.916666699999999,299.232,19,0,2.97
vn,ban na san,Ban Na San,34,,20.483333,104.5,286.357,98,92,1.02
gr,mesolongos,Mesolóngos,09,,40.3333333,21.25,265.882,82,0,0.97
pe,angasmayo,Angasmayo,05,,-13.333333300000001,-74.3666667,297.15,33,0,1
ru,gromok,Gromok,84,,50.55,42.7,274.757,92,0,6.62
my,long julan,Long Julan,11,,3.1,114.8,294.657,94,92,0.87
id,booy,Booy,21,,-0.9237,123.3614,300.107,100,48,0.77
mx,san juan de oriente,San Juan de Oriente,28,,23.5,-99.333333,291.15,25,40,0.82
vn,pho trach,Pho Trach,27,,13.833332999999998,109.183333,295.657,96,92,5.72
co,hacienda forzado,Hacienda Forzado,35,,10.166667,-75.31666700000001,304.15,79,20,5.1
id,manis cilebak,Manis Cilebak,30,,-7.1323,108.5848,294.107,100,92,0.92
sd,miau,Miau,26,,9.0333333,32.4333333,299.782,41,0,1.87
tj,oktyabr'',Oktyabr'',02,,38.525,68.33333329999999,274.15,74,0,2
ir,toviri,Toviri,11,,26.8584,53.9132,294.15,49,0,2.1
gh,duakoben,Duakoben,02,,6.5666667,-1.7166667000000002,299.157,60,0,2.02
kr,sangpyong,Sangpyong,14,,35.983333,128.883333,274.15,64,0,7.7
ru,peskanskoye,Peskanskoye,93,,50.771,108.1231,243.982,27,0,0.87
br,sitio sebastiao barbarino,Sítio Sebastião Barbarino,18,,-23.5936,-49.8443,303.982,53,0,3.77
cy,pentageia,Pentageia,04,,35.1538889,32.883055600000006,286.49,76,20,2.6
tr,akcaagil,Akcaagil,40,,39.028133000000004,34.211698,278.15,78,20,3.6
af,espi sang,Espi Sang,41,,34.297784,66.08596,259.657,76,20,1.07
mm,njakawng,Njakawng,04,,25.9833333,97.2333333,290.407,97,100,0.87
ru,rogachevka,Rogachëvka,43,,52.691483999999996,39.050688,274.707,91,48,6.72
es,villaverde de los cestos,Villaverde de los Cestos,55,,42.600753999999995,-6.472094,282.15,100,75,10.8
pl,targanica,Targanica,77,,49.808762,19.321749,274.15,50,0,1
ve,la falda,La Falda,11,,11.9027778,-69.88722220000001,302.67,70,75,7.82
at,leibnitz,Leibnitz,06,7029.0,46.781667,15.541667000000002,275.13,69,75,7.2
by,makhovo,Makhovo,04,,53.7055556,30.506944399999995,271.407,95,88,4.87
af,myan rudi,Myan Rudi,11,,33.432738,62.511768999999994,267.482,78,0,0.72
sy,jubb `ali,Jubb `Ali,09,,36.033333299999995,37.8,277.407,77,76,2.67
af,nazar menah,Nazar Menah,29,,32.244517,68.499289,267.807,68,0,2.12
ru,artyukhi,Artyukhi,69,,55.700933,34.623455,276.407,94,92,7.12
cn,xiaoai nongchang,Xiaoai Nongchang,03,,25.340278,114.293889,275.807,81,0,1.47
